{
"type": "FeatureCollection",
"name": "National_Obesity_By_state_points",
"crs": { "type": "name", "properties": { "name": "urn:ogc:def:crs:OGC:1.3:CRS84" } },
"features": [
{ "type": "Feature", "properties": { "FID": 1, "NAME": "Texas", "Obesity": 32.4, "SHAPE_Length": 45.047445537083902, "SHAPE_Area": 65.77862362257251 }, "geometry": { "type": "Point", "coordinates": [ -99.33232968944418, 31.462009982815321 ] } },
{ "type": "Feature", "properties": { "FID": 2, "NAME": "California", "Obesity": 24.2, "SHAPE_Length": 40.755927434090715, "SHAPE_Area": 41.730163918002511 }, "geometry": { "type": "Point", "coordinates": [ -119.61113240136649, 37.242219720704639 ] } },
{ "type": "Feature", "properties": { "FID": 3, "NAME": "Kentucky", "Obesity": 34.6, "SHAPE_Length": 20.348345175776071, "SHAPE_Area": 10.665636404030666 }, "geometry": { "type": "Point", "coordinates": [ -85.289020916999519, 37.525954386504353 ] } },
{ "type": "Feature", "properties": { "FID": 4, "NAME": "Georgia", "Obesity": 30.7, "SHAPE_Length": 17.288448193841273, "SHAPE_Area": 14.682554491365565 }, "geometry": { "type": "Point", "coordinates": [ -83.44336442428343, 32.648100914218979 ] } },
{ "type": "Feature", "properties": { "FID": 5, "NAME": "Wisconsin", "Obesity": 30.7, "SHAPE_Length": 22.428844848349289, "SHAPE_Area": 16.512936957675162 }, "geometry": { "type": "Point", "coordinates": [ -90.009460063982132, 44.639034392400902 ] } },
{ "type": "Feature", "properties": { "FID": 6, "NAME": "Oregon", "Obesity": 30.1, "SHAPE_Length": 24.565041129391517, "SHAPE_Area": 28.183015941834935 }, "geometry": { "type": "Point", "coordinates": [ -120.556752428339323, 43.936931221655136 ] } },
{ "type": "Feature", "properties": { "FID": 7, "NAME": "Virginia", "Obesity": 29.2, "SHAPE_Length": 24.3380924759857, "SHAPE_Area": 10.776533397153422 }, "geometry": { "type": "Point", "coordinates": [ -78.787811395832364, 37.512608080163254 ] } },
{ "type": "Feature", "properties": { "FID": 8, "NAME": "Tennessee", "Obesity": 33.8, "SHAPE_Length": 20.707562157089637, "SHAPE_Area": 10.892142491096523 }, "geometry": { "type": "Point", "coordinates": [ -86.340644249717599, 35.843325151663059 ] } },
{ "type": "Feature", "properties": { "FID": 9, "NAME": "Louisiana", "Obesity": 36.2, "SHAPE_Length": 22.176984793728373, "SHAPE_Area": 11.856407813196103 }, "geometry": { "type": "Point", "coordinates": [ -91.945497080655841, 31.020181391121739 ] } },
{ "type": "Feature", "properties": { "FID": 10, "NAME": "New York", "Obesity": 25.0, "SHAPE_Length": 26.256620740892586, "SHAPE_Area": 14.073657369590213 }, "geometry": { "type": "Point", "coordinates": [ -75.497979450031963, 42.937237780018918 ] } },
{ "type": "Feature", "properties": { "FID": 11, "NAME": "Michigan", "Obesity": 31.2, "SHAPE_Length": 41.993361566664333, "SHAPE_Area": 17.359909016015095 }, "geometry": { "type": "Point", "coordinates": [ -85.437673829980511, 44.371548165738957 ] } },
{ "type": "Feature", "properties": { "FID": 12, "NAME": "Idaho", "Obesity": 28.6, "SHAPE_Length": 27.399541790394213, "SHAPE_Area": 24.484625056710723 }, "geometry": { "type": "Point", "coordinates": [ -114.658732872949841, 44.390339899042019 ] } },
{ "type": "Feature", "properties": { "FID": 13, "NAME": "Florida", "Obesity": 26.8, "SHAPE_Length": 30.871043526294308, "SHAPE_Area": 14.227640612844118 }, "geometry": { "type": "Point", "coordinates": [ -82.495812846419369, 28.595308833606783 ] } },
{ "type": "Feature", "properties": { "FID": 14, "NAME": "Alaska", "Obesity": 29.8, "SHAPE_Length": 21.730459585718645, "SHAPE_Area": 6.0368255059689293 }, "geometry": { "type": "Point", "coordinates": [ -131.971082183621917, 55.990759363319739 ] } },
{ "type": "Feature", "properties": { "FID": 15, "NAME": "Montana", "Obesity": 23.6, "SHAPE_Length": 33.461770560477198, "SHAPE_Area": 45.053094827012991 }, "geometry": { "type": "Point", "coordinates": [ -109.643045643591321, 47.034339091490146 ] } },
{ "type": "Feature", "properties": { "FID": 16, "NAME": "Minnesota", "Obesity": 26.1, "SHAPE_Length": 28.887409705953438, "SHAPE_Area": 25.565096544561435 }, "geometry": { "type": "Point", "coordinates": [ -94.306344696381245, 46.317938093414142 ] } },
{ "type": "Feature", "properties": { "FID": 17, "NAME": "Nebraska", "Obesity": 31.4, "SHAPE_Length": 23.078116131404748, "SHAPE_Area": 21.61719706428622 }, "geometry": { "type": "Point", "coordinates": [ -99.810273731796215, 41.527199890859009 ] } },
{ "type": "Feature", "properties": { "FID": 18, "NAME": "Washington", "Obesity": 26.4, "SHAPE_Length": 24.49575795831948, "SHAPE_Area": 21.304870946672082 }, "geometry": { "type": "Point", "coordinates": [ -120.492494499540555, 47.38968956229759 ] } },
{ "type": "Feature", "properties": { "FID": 19, "NAME": "Ohio", "Obesity": 29.8, "SHAPE_Length": 15.578504278908408, "SHAPE_Area": 11.332126132157651 }, "geometry": { "type": "Point", "coordinates": [ -82.791387134307683, 40.295424791884493 ] } },
{ "type": "Feature", "properties": { "FID": 20, "NAME": "Illinois", "Obesity": 30.8, "SHAPE_Length": 19.085998072349508, "SHAPE_Area": 15.413231392060435 }, "geometry": { "type": "Point", "coordinates": [ -89.197529161006656, 40.063490066820037 ] } },
{ "type": "Feature", "properties": { "FID": 21, "NAME": "Missouri", "Obesity": 32.4, "SHAPE_Length": 22.715983146133233, "SHAPE_Area": 18.603974449388158 }, "geometry": { "type": "Point", "coordinates": [ -92.477897362294939, 38.368477703292989 ] } },
{ "type": "Feature", "properties": { "FID": 22, "NAME": "Iowa", "Obesity": 32.1, "SHAPE_Length": 18.627344771677745, "SHAPE_Area": 15.848955482676821 }, "geometry": { "type": "Point", "coordinates": [ -93.498967721316774, 42.07492426272205 ] } },
{ "type": "Feature", "properties": { "FID": 23, "NAME": "South Dakota", "Obesity": 30.4, "SHAPE_Length": 22.680907799459121, "SHAPE_Area": 22.577986208062374 }, "geometry": { "type": "Point", "coordinates": [ -100.23071640613172, 44.435954189828067 ] } },
{ "type": "Feature", "properties": { "FID": 24, "NAME": "Arkansas", "Obesity": 34.5, "SHAPE_Length": 17.655039093435839, "SHAPE_Area": 13.591410627042235 }, "geometry": { "type": "Point", "coordinates": [ -92.437860087017285, 34.900023168181349 ] } },
{ "type": "Feature", "properties": { "FID": 25, "NAME": "Mississippi", "Obesity": 35.6, "SHAPE_Length": 17.349499438552886, "SHAPE_Area": 11.866936534804312 }, "geometry": { "type": "Point", "coordinates": [ -89.662168992982259, 32.750960753673567 ] } },
{ "type": "Feature", "properties": { "FID": 26, "NAME": "Colorado", "Obesity": 20.2, "SHAPE_Length": 22.017326710270673, "SHAPE_Area": 28.036525644821356 }, "geometry": { "type": "Point", "coordinates": [ -105.547611691334268, 38.998427739682825 ] } },
{ "type": "Feature", "properties": { "FID": 27, "NAME": "North Carolina", "Obesity": 30.1, "SHAPE_Length": 21.26877351346776, "SHAPE_Area": 13.567510176014604 }, "geometry": { "type": "Point", "coordinates": [ -79.18180888823278, 35.538698346711286 ] } },
{ "type": "Feature", "properties": { "FID": 28, "NAME": "Utah", "Obesity": 24.5, "SHAPE_Length": 19.997475936434061, "SHAPE_Area": 22.977382134242717 }, "geometry": { "type": "Point", "coordinates": [ -111.678075588340334, 39.323786466217932 ] } },
{ "type": "Feature", "properties": { "FID": 29, "NAME": "Oklahoma", "Obesity": 33.9, "SHAPE_Length": 24.400310234988694, "SHAPE_Area": 17.996644998911467 }, "geometry": { "type": "Point", "coordinates": [ -97.508972892319221, 35.584308508928764 ] } },
{ "type": "Feature", "properties": { "FID": 30, "NAME": "Wyoming", "Obesity": 29.0, "SHAPE_Length": 21.981670909892539, "SHAPE_Area": 27.973611838500371 }, "geometry": { "type": "Point", "coordinates": [ -107.551253280074349, 42.999638954256135 ] } },
{ "type": "Feature", "properties": { "FID": 31, "NAME": "West Virginia", "Obesity": 35.6, "SHAPE_Length": 16.504885509588998, "SHAPE_Area": 6.5134477615322472 }, "geometry": { "type": "Point", "coordinates": [ -80.611641393079509, 38.644119792270956 ] } },
{ "type": "Feature", "properties": { "FID": 32, "NAME": "Indiana", "Obesity": 31.3, "SHAPE_Length": 14.788971190141941, "SHAPE_Area": 9.8801788057366196 }, "geometry": { "type": "Point", "coordinates": [ -86.275011702659313, 39.907827126764452 ] } },
{ "type": "Feature", "properties": { "FID": 33, "NAME": "Massachusetts", "Obesity": 24.3, "SHAPE_Length": 13.62618099717341, "SHAPE_Area": 2.3925702951360166 }, "geometry": { "type": "Point", "coordinates": [ -71.759895675657987, 42.23591273635575 ] } },
{ "type": "Feature", "properties": { "FID": 34, "NAME": "Nevada", "Obesity": 26.7, "SHAPE_Length": 23.516396173825253, "SHAPE_Area": 29.937275214339614 }, "geometry": { "type": "Point", "coordinates": [ -116.655263360290604, 39.356303185680062 ] } },
{ "type": "Feature", "properties": { "FID": 35, "NAME": "Connecticut", "Obesity": 25.3, "SHAPE_Length": 5.7124009049500453, "SHAPE_Area": 1.4002630419425488 }, "geometry": { "type": "Point", "coordinates": [ -72.726890018751035, 41.618733834256702 ] } },
{ "type": "Feature", "properties": { "FID": 36, "NAME": "District of Columbia", "Obesity": 22.1, "SHAPE_Length": 0.61236756359913502, "SHAPE_Area": 0.018580368995018231 }, "geometry": { "type": "Point", "coordinates": [ -77.016562208768164, 38.904185520691541 ] } },
{ "type": "Feature", "properties": { "FID": 37, "NAME": "Rhode Island", "Obesity": 26.0, "SHAPE_Length": 3.01991077899936, "SHAPE_Area": 0.34634668223634046 }, "geometry": { "type": "Point", "coordinates": [ -71.531777320860698, 41.662464756684535 ] } },
{ "type": "Feature", "properties": { "FID": 38, "NAME": "Alabama", "Obesity": 35.6, "SHAPE_Length": 16.904426007938397, "SHAPE_Area": 12.897370891744519 }, "geometry": { "type": "Point", "coordinates": [ -86.828389874978257, 32.788886931967156 ] } },
{ "type": "Feature", "properties": { "FID": 39, "NAME": "Puerto Rico", "Obesity": 29.5, "SHAPE_Length": 5.6843964216502307, "SHAPE_Area": 0.79607272227098624 }, "geometry": { "type": "Point", "coordinates": [ -66.456776002784153, 18.221047352324184 ] } },
{ "type": "Feature", "properties": { "FID": 40, "NAME": "South Carolina", "Obesity": 31.7, "SHAPE_Length": 13.35794804974482, "SHAPE_Area": 7.8605365589792422 }, "geometry": { "type": "Point", "coordinates": [ -80.895213523906136, 33.908183193682703 ] } },
{ "type": "Feature", "properties": { "FID": 41, "NAME": "Maine", "Obesity": 30.0, "SHAPE_Length": 17.105722269172784, "SHAPE_Area": 10.0027712203809 }, "geometry": { "type": "Point", "coordinates": [ -69.214010367404327, 45.343279849021528 ] } },
{ "type": "Feature", "properties": { "FID": 42, "NAME": "Hawaii", "Obesity": 22.7, "SHAPE_Length": 0.0, "SHAPE_Area": 0.0 }, "geometry": null },
{ "type": "Feature", "properties": { "FID": 43, "NAME": "Arizona", "Obesity": 28.4, "SHAPE_Length": 23.022490599978838, "SHAPE_Area": 28.921300047206248 }, "geometry": { "type": "Point", "coordinates": [ -111.664493463196834, 34.29283325166417 ] } },
{ "type": "Feature", "properties": { "FID": 44, "NAME": "New Mexico", "Obesity": 28.8, "SHAPE_Length": 23.5522781539897, "SHAPE_Area": 30.892812087616853 }, "geometry": { "type": "Point", "coordinates": [ -106.108371577251049, 34.421420296257473 ] } },
{ "type": "Feature", "properties": { "FID": 45, "NAME": "Maryland", "Obesity": 28.9, "SHAPE_Length": 18.285143479615286, "SHAPE_Area": 2.865092151783541 }, "geometry": { "type": "Point", "coordinates": [ -76.751041278024701, 39.028063719396293 ] } },
{ "type": "Feature", "properties": { "FID": 46, "NAME": "Delaware", "Obesity": 29.7, "SHAPE_Length": 4.0780324019342764, "SHAPE_Area": 0.553716055276535 }, "geometry": { "type": "Point", "coordinates": [ -75.500950518429036, 39.000636052450602 ] } },
{ "type": "Feature", "properties": { "FID": 47, "NAME": "Pennsylvania", "Obesity": 30.0, "SHAPE_Length": 16.563285889676063, "SHAPE_Area": 12.537445414834787 }, "geometry": { "type": "Point", "coordinates": [ -77.799546318005454, 40.874165814386771 ] } },
{ "type": "Feature", "properties": { "FID": 48, "NAME": "Kansas", "Obesity": 34.2, "SHAPE_Length": 21.035658608482525, "SHAPE_Area": 22.013627366189411 }, "geometry": { "type": "Point", "coordinates": [ -98.378915788000896, 38.485159089805414 ] } },
{ "type": "Feature", "properties": { "FID": 49, "NAME": "Vermont", "Obesity": 25.1, "SHAPE_Length": 8.2819648067340683, "SHAPE_Area": 2.8016084917044211 }, "geometry": { "type": "Point", "coordinates": [ -72.662214771011477, 44.074788143329641 ] } },
{ "type": "Feature", "properties": { "FID": 50, "NAME": "New Jersey", "Obesity": 25.6, "SHAPE_Length": 7.9400095087866056, "SHAPE_Area": 2.1346031290315022 }, "geometry": { "type": "Point", "coordinates": [ -74.660845103194546, 40.184981897429125 ] } },
{ "type": "Feature", "properties": { "FID": 51, "NAME": "North Dakota", "Obesity": 31.0, "SHAPE_Length": 20.633489684294823, "SHAPE_Area": 21.842001430553132 }, "geometry": { "type": "Point", "coordinates": [ -100.468817295674583, 47.446325673171792 ] } },
{ "type": "Feature", "properties": { "FID": 52, "NAME": "New Hampshire", "Obesity": 26.3, "SHAPE_Length": 8.0622512743571786, "SHAPE_Area": 2.683523908568842 }, "geometry": { "type": "Point", "coordinates": [ -71.576700561515011, 43.68570194677973 ] } }
]
}
